id,lat,lon,name,num_arribos,num_retiros,act
1,19.433571399999998,-99.16780909999999,1 RIO SENA-RIO BALSAS,5957.0,5773.0,11730.0
2,19.431386,-99.171695,2 RIO GUADALQUIVIR-RIO BALSAS,1912.0,1950.0,3862.0
3,19.431655,-99.158668,3 REFORMA-INSURGENTES,2036.0,2208.0,4244.0
4,19.428309,-99.171713,4 RIO NILO-RIO PANUCO,2025.0,1760.0,3785.0
5,19.42972,-99.169363,5 RIO PANUCO-RIO TIBER,2060.0,1954.0,4014.0
6,19.430922,-99.16695899999999,6 RIO PANUCO-RIO SENA,2753.0,2668.0,5421.0
7,19.425468,-99.175166,7 RIO ELBA-RIO LERMA,3639.0,3316.0,6955.0
8,19.431141,-99.15831700000001,8 REFORMA-GENERAL PRIM,1496.0,1648.0,3144.0
9,19.428009,-99.16991800000001,9 RIO GUADALQUIVIR-RIO LERMA,2217.0,2000.0,4217.0
10,19.433321,-99.154752,10 REFORMA-RAMIREZ,2555.0,2629.0,5184.0
11,19.430992,-99.163593,11 RIO AMAZONAS-RIO LERMA,2564.0,2493.0,5057.0
12,19.432313,-99.161597,12 RIO LERMA-VILLALONGIN,1844.0,1734.0,3578.0
13,19.42502,-99.17231,13 REFORMA-RIO MISSISSIPPI,1618.0,1214.0,2832.0
14,19.424768,-99.173261,14 REFORMA-RIO DE PLATA,4086.0,3612.0,7698.0
15,19.425476999999997,-99.17156700000001,15 REFORMA-RIO MISSISSIPPI,3606.0,3652.0,7258.0
16,19.427226,-99.168242,16 REFORMA-RÍO TIBER,3701.0,3069.0,6770.0
17,19.427501,-99.167125,17 REFORMA-RIO TIBER,1312.0,1230.0,2542.0
18,19.42888,-99.164176,18 REFORMA-RIO RHIN,4471.0,4346.0,8817.0
19,19.429241,-99.163377,19 REFORMA-RIO RHIN,2804.0,2812.0,5616.0
20,19.430964000000003,-99.160206,20 REFORMA-RIO TAMESIS,2720.0,3015.0,5735.0
21,19.42472,-99.17206,21 REFORMA-DUBLIN,1494.0,2411.0,3905.0
22,19.424375,-99.172575,22 REFORMA-MANCHESTER,1336.0,1618.0,2954.0
23,19.42517,-99.17105,23 REFORMA-PRAGA,3278.0,3284.0,6562.0
24,19.426470000000002,-99.16821999999999,24 REFORMA-VARSOVIA,3659.0,3587.0,7246.0
25,19.427317000000002,-99.166662,25 REFORMA-ESTOCOLMO,2999.0,2766.0,5765.0
26,19.432685,-99.154726,26 REFORMA-VERSALLES,2673.0,2781.0,5454.0
27,19.429115,-99.162614,27 REFORMA-HAVRE,6143.0,6005.0,12148.0
28,19.423542,-99.172494,28 TOLEDO-TOKIO,4071.0,3865.0,7936.0
29,19.434913,-99.149939,29 REFORMA-BUCARELI,2999.0,2726.0,5725.0
30,19.426442,-99.164323,30 HAMBURGO-GENOVA,2712.0,2230.0,4942.0
31,19.427838,-99.16119300000001,31 HAMBURGO-INSURGENTES,2781.0,2605.0,5386.0
32,19.422705,-99.169922,32 LONDRES-SEVILLA,2980.0,3088.0,6068.0
33,19.424234,-99.166431,E33 LONDRES-FLORENCIA,1517.0,1334.0,2851.0
34,19.424725,-99.163331,34 LIVERPOOL-GENOVA,2363.0,2419.0,4782.0
35,19.424674,-99.163292,35 LIVERPOOL-GENOVA,2408.0,2542.0,4950.0
36,19.419725,-99.17577800000001,36 PUEBLA-VERACRUZ,4599.0,4409.0,9008.0
37,19.420419,-99.172676,37 GUADALAJARA-PUEBLA,2884.0,2677.0,5561.0
38,19.420801,-99.17140699999999,38 COZUMEL-PUEBLA,3796.0,3171.0,6967.0
39,19.421758999999998,-99.16694,39 PUEBLA-MEDELLÍN,2006.0,1970.0,3976.0
40,19.42223,-99.16429699999999,40 OAXACA-PUEBLA,2304.0,2405.0,4709.0
41,19.435637,-99.150137,41 REFORMA-AV. DE LA REPUBLICA,3519.0,4298.0,7817.0
42,19.420472,-99.168238,42 SINALOA-VALLADOLID,1443.0,1423.0,2866.0
43,19.435228,-99.146063,43 JUAREZ-REVILLAGIGEDO,3879.0,3289.0,7168.0
44,19.418057,-99.174761,44 DURANGO-VERACRUZ,1517.0,1814.0,3331.0
45,19.418649,-99.172127,45 DURANGO-SONORA,2755.0,2853.0,5608.0
46,19.419214,-99.169732,46 DURANGO-SALAMANCA,2554.0,2410.0,4964.0
47,19.419515,-99.166299,47 GLORIETA CIBELES-OAXACA,3680.0,3441.0,7121.0
48,19.433685999999998,-99.146557,48 INDEPENDENCIA-AZUETA,1814.0,1767.0,3581.0
49,19.416712,-99.17570400000001,49 MAZATLAN-JUAN DE LA BARRERA,1791.0,1775.0,3566.0
50,19.416938000000002,-99.173648,50 CUERNAVACA-VERACRUZ,1183.0,1352.0,2535.0
51,19.417995,-99.16824799999999,51 COLIMA-OAXACA,2283.0,2066.0,4349.0
52,19.436235999999997,-99.142039,52 HIDALGO-TRUJANO,2610.0,2488.0,5098.0
53,19.414773,-99.178433,53 FERNANDO MONTES DE OCA-TULA,2725.0,2661.0,5386.0
54,19.416215,-99.170825,54 PARQUE ESPAÑA-SONORA,2340.0,2325.0,4665.0
55,19.434356,-99.138064,55 5 DE MAYO-BOLIVAR,1344.0,993.0,2337.0
56,19.416959,-99.165702,56 ALVARO OBREGON-MEDELLIN,2593.0,2403.0,4996.0
57,19.414903,-99.17495,57 CUERNAVACA-JUAN ESCUTIA,1308.0,1444.0,2752.0
58,19.41568,-99.17179300000001,58 PARQUE ESPAÑA-JUAN DE LA BARRERA,1785.0,1721.0,3506.0
59,19.415121,-99.166661,59 POPOCATEPETL-AMSTERDAM,2884.0,2442.0,5326.0
60,19.414191,-99.177123,60 MAZATLAN-FERNANDO MONTES DE OCA,1822.0,1918.0,3740.0
61,19.413742000000006,-99.169525,61 AVENIDA MEXICO-SONORA,1950.0,1671.0,3621.0
62,19.413322,-99.175202,62 FERNANDO MONTES DE OCA-AMATLAN,1604.0,1595.0,3199.0
63,19.413681,-99.171531,63 NUEVO LEON- LAREDO,2813.0,2539.0,5352.0
64,19.412876999999998,-99.166986,64 SONORA-AMSTERDAM,4849.0,4383.0,9232.0
65,19.436142,-99.13990600000001,65 MARCONI-TACUBA,1335.0,1119.0,2454.0
66,19.411402,-99.178666,66 MAZATLAN-FRANCISCO MARQUEZ,2531.0,2375.0,4906.0
67,19.411797,-99.17588,67 VICENTE SUAREZ-MICHOACAN,1802.0,1618.0,3420.0
68,19.411556,-99.17406,68 TAMAULIPAS-MICHOACAN,2708.0,2217.0,4925.0
69,19.410733,-99.168111,69 MICHOACAN-AMSTERDAM,2115.0,2063.0,4178.0
70,19.411272,-99.169718,70 PARQUE MEXICO-MICHOACAN,1685.0,1574.0,3259.0
71,19.411423000000006,-99.171351,71 AMSTERDAM-MICHOACAN,2531.0,2208.0,4739.0
72,19.409893,-99.17954399999999,72 MAZATLAN-ALFONSO REYES,2888.0,2863.0,5751.0
73,19.410245,-99.175612,73 CAMPECHE-TAMAULIPAS,2308.0,2360.0,4668.0
74,19.410343,-99.172831,74 NUEVO LEON-OZULAMA,3058.0,2729.0,5787.0
75,19.408722,-99.17669000000001,75 ALFONSO REYES-ATLIXCO,1803.0,1959.0,3762.0
76,19.408735999999998,-99.169913,76 CHILPANCINGO-CAMPECHE,1443.0,1462.0,2905.0
77,19.406765,-99.178321,77 CHOAPAN-TAMAULIPAS,2086.0,2371.0,4457.0
78,19.407503,-99.177382,78 BENJAMIN HILL-TAMAULIPAS,1020.0,1260.0,2280.0
79,19.407534,-99.17442700000001,79 SALTILLO-ALFONSO REYES,1836.0,1859.0,3695.0
80,19.407307,-99.17211800000001,80 NUEVO LEON-AGUASCALIENTES,2269.0,2272.0,4541.0
81,19.408006,-99.168475,81 AGUASCALIENTES-INSURGENTES,544.0,630.0,1174.0
82,19.433115,-99.143686,82 INDEPENDENCIA-MARROQUI,2530.0,2521.0,5051.0
83,19.406295999999998,-99.172117,83 NUEVO LEON-ALFONSO REYES,1525.0,1622.0,3147.0
84,19.407020000000006,-99.16958699999999,84 CHILPANCINGO-TLAXCALA,2527.0,2728.0,5255.0
85,19.43425,-99.162508,85 ROSAS MORENO-SULLIVAN,2123.0,2202.0,4325.0
86,19.432378,-99.159077,86 SULLIVAN-INSURGENTES,2221.0,2709.0,4930.0
87,19.431820000000002,-99.13974,87 GANTE-VENUSTIANO CARRANZA,2098.0,1647.0,3745.0
88,19.433815,-99.13530300000001,88 2A CDA 5 DE MAYO-PALMA,850.0,615.0,1465.0
89,19.434946,-99.133989,89 REPUBLICA DE GUATEMALA-MONTE DE PIEDAD,647.0,602.0,1249.0
90,19.431698,-99.132446,90 JOSE MARIA PINO SUAREZ-CORREGIDORA,1113.0,893.0,2006.0
91,19.4374,-99.137571,91 REPUBLICA DE CUBA-ALLENDE,730.0,595.0,1325.0
92,19.436531,-99.131497,92 SAN ILDEFONSO-REPUBLICA DE ARGENTINA,1106.0,1029.0,2135.0
93,19.436741,-99.134811,93 PALMA NORTE-REPUBLICA DE CUBA,619.0,567.0,1186.0
94,19.433766000000002,-99.13091800000001,94 LIC. VERDAD-MONEDA,603.0,561.0,1164.0
95,19.430722,-99.133698,95 20 DE NOVIEMBRE-VENUSTIANO CARRANZA,845.0,759.0,1604.0
96,19.430625,-99.14248,96 LOPEZ-AYUNTAMIENTO,2693.0,2171.0,4864.0
97,19.429189,-99.132759,97 REPUBLICA DE SALVADOR-PINO SUAREZ,704.0,608.0,1312.0
98,19.430267,-99.14860999999999,98 EMILIO DONDE-AV. BALDERAS,1457.0,1257.0,2714.0
99,19.42995,-99.14591,99 ERNESTO PUGIBET-LUIS MOYA,1710.0,1451.0,3161.0
100,19.428485000000002,-99.1338,100 20 DE NOVIEMBRE-MESONES,452.0,391.0,843.0
101,19.428366,-99.13589499999999,101 1ER. CALLEJÓN DE MESONES-MESONES,254.0,196.0,450.0
102,19.42821,-99.13949000000001,102 ECHEVESTE-BOLIVAR,627.0,605.0,1232.0
103,19.441669,-99.165217,103 JOAQUÍN VELÁZQUEZ DE LEÓN-GARCÍA ICAZBALCETA,2089.0,2220.0,4309.0
104,19.427059,-99.137116,104 SAN JERONIMO-ISABEL LA CATOLICA,695.0,700.0,1395.0
105,19.426755,-99.135014,105 SAN JERONIMO-5 DE FEBRERO,476.0,486.0,962.0
106,19.42649,-99.133537,106 SAN JERONIMO-JOSE MARIA PINO SUAREZ,1606.0,1500.0,3106.0
107,19.427329,-99.149971,107 TOLSA-BALDERAS,2990.0,2991.0,5981.0
108,19.427305,-99.14953299999999,E108 TOLSA-BALDERAS,802.0,898.0,1700.0
109,19.425310999999997,-99.137421,109 NEZAHUALCOYOTL-ISABEL LA CATOLICA,1006.0,840.0,1846.0
110,19.42513,-99.14339,110 DR. VALENZUELA-DR. RÍO DE LA LOZA,1069.0,870.0,1939.0
111,19.438236899999996,-99.16594649999999,111 GUILLERMO PRIETO-JOAQUÍN VELÁZQUEZ DE LEÓN,2361.0,2612.0,4973.0
112,19.432819,-99.15173399999999,112 AV. MORELOS-ABRAHAM GONZALEZ,1646.0,1600.0,3246.0
113,19.430369,-99.15441899999999,113 GENERAL PRIM-VERSALLES,0.0,0.0,0.0
114,19.428989,-99.15361800000001,114 LUCERNA-ABRAHAM GONZALEZ ,1919.0,1837.0,3756.0
115,19.429947,-99.15969799999999,115 ROMA-DINAMARCA ,2116.0,2368.0,4484.0
116,19.428985,-99.15664,116 LONDRES-ROMA,3055.0,2710.0,5765.0
117,19.427132,-99.16036899999999,117 LONDRES-NAPOLES ,1811.0,1609.0,3420.0
118,19.427114000000003,-99.158251,118 LIVERPOOL-DINAMARCA,1798.0,1560.0,3358.0
119,19.42679,-99.15554,119 TURÍN-ABRAHAM GONZÁLEZ,2387.0,2560.0,4947.0
120,19.425437,-99.159458,120 MARSELLA-NAPOLES,1901.0,1849.0,3750.0
121,19.424136999999998,-99.16131700000001,121 NIZA-CHAPULTEPEC,2057.0,2193.0,4250.0
122,19.425501999999998,-99.146337,122 JOSE MARIA VERTIZ-AV.DR. RIO DE LA LOZA,705.0,761.0,1466.0
123,19.424160999999998,-99.15311700000001,123 CLAUDIO BERNARD-DR. LAVISTA,1977.0,2080.0,4057.0
124,19.422392000000002,-99.150358,124 CLAUDIO BERNARD-DR. LICEAGA,2554.0,2510.0,5064.0
125,19.424541,-99.156204,125 MORELIA-CIRCULAR DE MORELIA,1991.0,2046.0,4037.0
126,19.422288,-99.162138,126 JALAPA-PUEBLA,2586.0,2335.0,4921.0
127,19.423318,-99.15833,127 PUEBLA-MERIDA,1915.0,1817.0,3732.0
128,19.422148,-99.160645,128 ORIZABA-RIO DE JANEIRO,1821.0,1817.0,3638.0
129,19.4206,-99.163312,129 TONALÁ-DURANGO,1975.0,1967.0,3942.0
130,19.421576,-99.158015,130 MÉRIDA-DURANGO,1637.0,1597.0,3234.0
131,19.419579000000002,-99.161314,131 COLIMA-JALAPA,1895.0,1796.0,3691.0
132,19.420667,-99.15645,132 COLIMA-FRONTERA,1319.0,1230.0,2549.0
133,19.421138,-99.154725,133 COLIMA-MORELIA,1998.0,1687.0,3685.0
134,19.418304,-99.15956,134 ÁLVARO OBREGÓN-ORIZABA,3292.0,2986.0,6278.0
135,19.419225,-99.15509899999999,135 ÁLVARO OBREGÓN-MORELIA,2486.0,2235.0,4721.0
136,19.417715,-99.162729,136 ÁLVARO OBREGÓN-TONALÁ,3630.0,3260.0,6890.0
137,19.418774,-99.157081,137 ÁLVARO OBREGÓN-MÉRIDA,1726.0,1875.0,3601.0
138,19.417702,-99.155313,138 GUANAJUATO-FRONTERA,1513.0,1602.0,3115.0
139,19.416128,-99.162097,E139 TONALÁ-GUANJUATO,1103.0,1047.0,2150.0
140,19.416605,-99.156853,140 MÉRIDA-ZACATECAS,1626.0,1761.0,3387.0
141,19.415905,-99.15954,141 ZACATECAS-LUIS CABRERA,3572.0,3132.0,6704.0
142,19.413232,-99.164121,142 SAN LUIS POTOSI-EJE 2 PTE. MONTERREY,2027.0,1993.0,4020.0
143,19.414303,-99.157542,143 CÓRDOBA-SAN LUIS POTOSÍ,1438.0,1513.0,2951.0
144,19.415192,-99.154837,144 FRONTERA-SAN LUIS POTOSÍ,1531.0,1271.0,2802.0
145,19.412860000000002,-99.160661,145 EJE 2 SUR YUCATÁN-CHIAPAS,2645.0,2539.0,5184.0
146,19.410737,-99.165716,146 COAHUILA-MANZANILLO,3396.0,3489.0,6885.0
147,19.412182,-99.158443,147 COAHUILA-ORIZABA,1619.0,1715.0,3334.0
148,19.412829000000002,-99.155116,148 COAHUILA-AV.CUAUHTEMOC,1090.0,1371.0,2461.0
149,19.41199,-99.155699,149 MÉRIDA-ANTONIO ANZA,2087.0,1883.0,3970.0
150,19.409965,-99.164292,150 CAMPECHE-MEDELLÍN,2536.0,2261.0,4797.0
151,19.410529,-99.160873,151 CAMPECHE-TONALÁ,2923.0,2646.0,5569.0
152,19.409098,-99.167181,152 TLACOTALPAN-CAMPECHE,1269.0,1279.0,2548.0
153,19.407467999999998,-99.165141,153 MANZANILLO-TLAXCALA,1230.0,1361.0,2591.0
154,19.406682999999997,-99.167962,154 TUXPAN-TLAXCALA,1314.0,1585.0,2899.0
155,19.408217999999998,-99.159911,E155 JALAPA-TLAXCALA,683.0,716.0,1399.0
156,19.407121,-99.16220200000001,156 TEPIC-AMENALCO,0.0,0.0,0.0
157,19.406236,-99.166616,157 TEPIC-TLACOTALPAN,926.0,1009.0,1935.0
158,19.407447,-99.15571700000001,158 HUATABAMPO-EJE 1PTE. CUAUHTÉMOC,2623.0,2615.0,5238.0
159,19.407517000000002,-99.155373,159 HUATABAMPO-EJE 1 PTE. AV. CUAUHTÉMOC,1504.0,1287.0,2791.0
160,19.44025,-99.16346,E160 ALFONSO HERRERA-GABINO BARRERA,742.0,783.0,1525.0
161,19.405533,-99.164913,161 QUINTANA ROO-MANZANILLO,1129.0,1322.0,2451.0
162,19.404907,-99.162485,162 TEHUANTEPEC-MEDELLÍN,1799.0,1718.0,3517.0
163,19.405245999999998,-99.15643100000001,163 TOLUCA-BAJÍO,2185.0,1778.0,3963.0
164,19.403204000000002,-99.16596,164 BAJÍO-TLACOTALPAN,2026.0,1973.0,3999.0
165,19.404268,-99.160503,165 BAJÍO-EJE 2 PTE. MONTERREY,1672.0,1729.0,3401.0
166,19.406069,-99.183549,166 PROGRESO-CDA. ANTONIO MACEO,1348.0,1584.0,2932.0
167,19.404651,-99.179375,167 GENERAL SALVADOR ALVARADO-PROGRESO,1710.0,1937.0,3647.0
168,19.403997,-99.1776,168 COMERCIO-PROGRESO,1363.0,1449.0,2812.0
169,19.403019,-99.174934,169 PROSPERIDAD-PROGRESO,1768.0,1784.0,3552.0
170,19.404029,-99.184342,170 OBSERVATORIO ORIENTE-REVOLUCIÓN,1396.0,1494.0,2890.0
171,19.402584,-99.17819899999999,171 COMERCIO-JOSE MARTÍ,1372.0,1504.0,2876.0
172,19.4034921,-99.18160019999999,172 GENERAL FRANCISCO MURGUIA-JOSE MARTÍ,1165.0,1111.0,2276.0
173,19.401682,-99.17639799999999,173 MINERÍA-JOSÉ MARTÍ,1094.0,1336.0,2430.0
174,19.441110000000002,-99.16164,174 JOAQUÍN GARCIA-IGNACIO MANUEL ALTAMIRANO,4022.0,4020.0,8042.0
175,19.400767000000002,-99.172533,E175 MUTUALISMO-JOSÉ MARTí,677.0,685.0,1362.0
176,19.442689,-99.152286,176 AV. JESÜS GARCÏA-LUIS DONALDO COLOSIO,1226.0,846.0,2072.0
177,19.408841,-99.181692,177 BENJAMIN HILL-CARLOS ZETINA,1505.0,1703.0,3208.0
178,19.406833,-99.18045699999999,178 TAMAULIPAS-FRANCISCO MURGUÍA,1878.0,1671.0,3549.0
179,19.404452,-99.171438,179 NUEVO LEÓN-QUINTANA ROO,1512.0,1698.0,3210.0
180,19.404554,-99.169953,180 QUINTANA ROO-VILLA HERMOSA,1964.0,2000.0,3964.0
181,19.40472,-99.17448,181 BENJAMIN FRANKLIN-OMETUSCO,1583.0,1549.0,3132.0
182,19.402089,-99.17139,182 PROGRESO-ASTRONOMOS,4723.0,4255.0,8978.0
183,19.43767,-99.16402,183 GABINO BARRERA-GUILLERMO PRIETO,2483.0,2563.0,5046.0
184,19.41479,-99.18508,184 GRAL GÓMEZ PEDRAZA-GOBERNADOR TIBURCIO M,1295.0,1110.0,2405.0
185,19.4128,-99.1828,185 GRAL ANTONIO LÉON-GRAL PEDRO A DE LOS S.,1970.0,1863.0,3833.0
186,19.412429100000004,-99.1885117,186 GREGORIO V GELATI-FRANCISCO MOLINOS DEL C,1621.0,1802.0,3423.0
187,19.41123,-99.18551,187 GENERAL CANO-GOBERNADOR GREGORIO V GELATI,1937.0,1991.0,3928.0
188,19.41171,-99.19014,188 GDOR MELCHOR MÚZQUIZ-GDOR IGNACIO ESTEVA ,1062.0,1348.0,2410.0
189,19.41004,-99.18798000000001,189 GDOR RAFAEL REBOLLAR-GDOR JOSÉ CEBALLOS,741.0,1044.0,1785.0
190,19.409569,-99.18383299999999,E190 GDOR IGNACIO ESTEVA-MTRO JOSÉ VASCONCELOS,818.0,832.0,1650.0
191,19.4079,-99.18795,191 GDOR RAFAEL REBOLLAR-GDOR VICENTE EGUIA,961.0,1301.0,2262.0
192,19.42592,-99.19075500000001,192 RUBEN DARIO-REFORMA,1410.0,1542.0,2952.0
193,19.425907000000002,-99.190733,193 RUBEN DARIO-REFORMA,1215.0,1714.0,2929.0
194,19.424282,-99.180334,194 CTO MAHATMA GANDHI-AV. PASEO DE LA REFORMA,2586.0,2865.0,5451.0
195,19.424926,-99.185147,195 AV. PASEO DE LA REFORMA-CTO MAHATMA GANDHI,1095.0,1238.0,2333.0
196,19.438349,-99.192904,196 LAGO TANGANICA-AV. EJERCITO NACIONAL,740.0,764.0,1504.0
197,19.440077,-99.204316,197 MIGUEL DE CERVANTES-FC DE CUERNAVACA,2424.0,2375.0,4799.0
198,19.438168,-99.203888,198 SÓCRATES-EJERCITO NACIONAL ,1024.0,1052.0,2076.0
199,19.437934,-99.197241,199 ANATOLE FRANCE-AV. EJERCITO NACIONAL,631.0,723.0,1354.0
200,19.437596,-99.188785,200 EMERSON-AV. EJERCITO NACIONAL,1286.0,1376.0,2662.0
201,19.437431,-99.18721500000001,201 LOPE DE VEGA-EJERCITO NACIONAL ,940.0,998.0,1938.0
202,19.43617,-99.198943,202 CALDERON DE LA BARCA-AV. HOMERO,746.0,722.0,1468.0
203,19.435985000000002,-99.19483199999999,203 TENNYSON-AV. HOMERO,488.0,638.0,1126.0
204,19.435882,-99.19152,204 TEMISTOCLES-HOMERO,994.0,1442.0,2436.0
205,19.435525,-99.184713,205 TAINE-HOMERO,1703.0,1693.0,3396.0
206,19.435798000000002,-99.201419,206 MOLIERE-HOMERO ,2209.0,2270.0,4479.0
207,19.434860999999998,-99.183322,207 TASSO-HOMERO ,1284.0,1232.0,2516.0
208,19.434182,-99.189835,208 HESIODO-LAMARTINE ,2971.0,3540.0,6511.0
209,19.435478,-99.20635899999999,209 SOLON-HORACIO ,1369.0,1366.0,2735.0
210,19.434076,-99.194091,210 EUGENIO SUE-HORACIO ,971.0,1512.0,2483.0
211,19.433607000000002,-99.188528,211 NEWTON-HORACIO,2599.0,3236.0,5835.0
212,19.433567,-99.188096,212 HEGEL-HORACIO ,1806.0,1639.0,3445.0
213,19.43432,-99.20631999999999,213 SOLÓN-CICERÓN,532.0,742.0,1274.0
214,19.434353,-99.20322,214 PLATÓN-HORACIO,695.0,798.0,1493.0
215,19.43384,-99.19968,215 EDGAR ALAN POE-HORACIO,816.0,1043.0,1859.0
216,19.433419,-99.195746,216 ALEJANDRO DUMAS-HORACIO ,960.0,1148.0,2108.0
217,19.432888000000002,-99.183605,217 EULER-AV. HORACIO ,4145.0,3364.0,7509.0
218,19.432451,-99.18803299999999,218 HEGEL-IBARBOUROU ,656.0,641.0,1297.0
219,19.433542000000006,-99.207808,219 ESOPO-FC DE CUERNAVACA,1495.0,1663.0,3158.0
220,19.432655,-99.205727,220 PLINIO-PRESIDENTE MASARYK ,571.0,642.0,1213.0
221,19.431798999999998,-99.201565,221 EMILIO CASTELAR-PRESIDENTE MASARYK ,975.0,1079.0,2054.0
222,19.431417,-99.195774,E222 ALEJANDRO DUMAS-PRESIDENTE MASARYK,759.0,725.0,1484.0
223,19.431242,-99.191613,223 NEWTON-PRESIDENTE MASARYK ,1018.0,1208.0,2226.0
224,19.431255,-99.18806500000001,224 HEGEL-PRESIDENTE MASARYK,926.0,867.0,1793.0
225,19.431172,-99.185612,225 PETRARCA-PRESIDENTE MASARYK,989.0,1082.0,2071.0
226,19.431033,-99.18222,226 WALLON-PRESIDENTE MASARYK,1355.0,1347.0,2702.0
227,19.431791,-99.207373,227 CAMPOS ELÍSEOS-PERIFÉRICO,901.0,1071.0,1972.0
228,19.427705,-99.19912,228 CAMPOS ELÍSEOS-JEAN DE LA FONTAINE,1057.0,1470.0,2527.0
229,19.430515,-99.203331,229 DICKENS-SENECA,781.0,917.0,1698.0
230,19.430098,-99.200074,230 EDGAR ALAN POE-DICKENS,817.0,915.0,1732.0
231,19.42977,-99.19349,231 NEWTON-ARISTOTELES ,957.0,932.0,1889.0
232,19.42894,-99.185389,232 TAINE-RUBEN DARÍO ,1135.0,1140.0,2275.0
233,19.429314,-99.196965,233 JULIO VERNE-LUIS G. URBINA ,1142.0,1160.0,2302.0
234,19.42783,-99.191539,234 TRES PICOS-ARQUÍMIDES ,1118.0,1213.0,2331.0
235,19.42933,-99.20218,235 CAMPOS ELISEOS-MOLIERE ,1301.0,1276.0,2577.0
236,19.42944,-99.20243,236 CAMPOS ELISEOS-MOLIERE ,1417.0,1767.0,3184.0
237,19.426744,-99.193986,237 ANDRÉS BELLO-ELLIOT ,1436.0,2001.0,3437.0
238,19.426765,-99.193752,238 ANDRÉS BELLO-ELLIOT ,1254.0,1915.0,3169.0
239,19.430153,-99.18135500000001,239 RINCON DEL BOSQUE-RUBEN DARÍO ,1117.0,1137.0,2254.0
240,19.43855,-99.2063,240 EJERCITO NACIONAL-F.C. DE CUERNAVACA ,1033.0,1227.0,2260.0
241,19.43862,-99.20758000000001,E241 EJERCITO NAL-JUAN VAZQUEZ DE LA MELLA ,907.0,925.0,1832.0
242,19.440344,-99.20105,242 MIGUEL DE CERVANTES SAAVEDRA-PROL MOLIERE ,2411.0,2543.0,4954.0
243,19.440839,-99.196712,243 MIGUEL DE CERVANTES SAAVEDRA-LAGO FILT ,697.0,917.0,1614.0
244,19.440885,-99.193315,244 MIGUEL DE CERVANTES SAAVEDRA-LAGO VICTORIA ,680.0,842.0,1522.0
245,19.43819,-99.19048000000001,245 LAGO ONEGA-AV. EJERCITO NACIONAL ,649.0,640.0,1289.0
246,19.434147,-99.179835,246 LEIBNITZ-THIERS,1361.0,1491.0,2852.0
247,19.432276,-99.18064,E247 HERSCHEL-ROUSSEAU ,904.0,908.0,1812.0
248,19.43175,-99.177399,248 SHAKESPEARE-LAFAYETTE ,1393.0,1496.0,2889.0
249,19.429876999999998,-99.17756899999999,249 SHAKESPEARE-DARWIN ,1021.0,1136.0,2157.0
250,19.429057,-99.17966,250 DARWIN-MARIANO ESCOBEDO ,1358.0,1424.0,2782.0
251,19.429261,-99.17538,251 GOETHE-DARWIN ,967.0,1164.0,2131.0
252,19.427575,-99.17702,252 VICTOR HUGO-SHAKESPEARE ,970.0,1046.0,2016.0
253,19.425835,-99.177924,253 DANTE-TOLSTOI ,1813.0,1832.0,3645.0
254,19.43935,-99.16006999999999,254 ALFONSO HERRERA-MIGUEL SHULTZ ,1938.0,1882.0,3820.0
255,19.437159,-99.161808,255 JOSE ROSAS MORENO-GUILLERMO PRIETO ,1666.0,1575.0,3241.0
256,19.4372,-99.15816,256 GÓMEZ FARÍAS-SADI CARNOT ,1676.0,1933.0,3609.0
257,19.4338,-99.16622,E257 MANUEL MARIA CONTRERAS-VILLALONGIN ,1095.0,1136.0,2231.0
258,19.4167,-99.1791,258 CIRCUITO INTERIOR-JUAN ESCUTIA ,1452.0,1671.0,3123.0
259,19.43757,-99.15468,259 TÓMAS ALVA EDISON-PONCIANO ARRIAGA ,1126.0,1218.0,2344.0
260,19.435354,-99.14774200000001,E260 AV JUAREZ-BALDERAS ,1034.0,992.0,2026.0
261,19.42495,-99.17246,261 PASEO DE LA REFORMA - RÍO DE LA PLATA,1095.0,978.0,2073.0
262,19.43693,-99.13395,262 REPUBLICA DE CUBA-REPUBLICA DE BRASIL ,688.0,541.0,1229.0
263,19.436273999999997,-99.158425,263 SADI CARNOT-GÓMEZ FARIAS ,869.0,948.0,1817.0
264,19.440985,-99.152935,264 HÉROES FERROCARRILEROS-AV. CENTRAL,795.0,786.0,1581.0
265,19.440839,-99.152265,265 HÉROES FERROCARRILEROS-JESÚS GARCIA,1119.0,1023.0,2142.0
266,19.444031,-99.152187,266 AV. JESÚS GARCIA-CARLOS J. MENESES ,7616.0,4724.0,12340.0
267,19.443735,-99.152203,267 AV. JESÜS GARCÏA-CARLOS J. MENESES,3760.0,1732.0,5492.0
268,19.442467,-99.151658,268 LUIS DONALDO COLOSIO-AV.JESÚS GARCÍA ,767.0,763.0,1530.0
269,19.442448000000002,-99.151586,269 LUIS DONALDO COLOSIO-ALDAMA ,598.0,661.0,1259.0
270,19.43676,-99.15387,270 DE LA REPUBLICA-PONCIANO ARRIAGA ,2871.0,3052.0,5923.0
271,19.443928,-99.152525,271 AV. CENTRAL-J. MENESES ,4997.0,6903.0,11900.0
272,19.443556,-99.152556,272 AV. CENTRAL-J. MENESES ,1966.0,2620.0,4586.0
273,19.442707000000002,-99.152956,273 LUIS DONALDO COLOSIO-AV. CENTRAL,886.0,676.0,1562.0
274,19.442772,-99.153289,274 LUIS DONALDO COLOSIO-AV INSURGENTES NORTE ,1552.0,1268.0,2820.0
275,19.441062,-99.153164,275 HÉROES FERROCARRILEROS-AV. INSURGENTES NORTE,537.0,626.0,1163.0
276,19.401985999999997,-99.156366,276 ANAXÁGORAS-OBRERO MUNDIAL,1915.0,1766.0,3681.0
277,19.401807,-99.15909,277 AMPLIACIÓN TONALÁ-OBRERO MUNDIAL,1152.0,1116.0,2268.0
278,19.40071,-99.163831,278 MIER Y PESADO-OBRERO MUNDIAL,907.0,852.0,1759.0
279,19.399908,-99.16655300000001,279 LA MORENA-PROVIDENCIA,499.0,577.0,1076.0
280,19.4015,-99.156406,280 ANAXÁGORAS-OBRERO MUNDIAL,1874.0,1435.0,3309.0
281,19.398532,-99.157308,281 PITÁGORAS-LA MORENA,1287.0,1212.0,2499.0
282,19.398692,-99.161273,282 LA MORENA-EJE 2 PONIENTE GABRIEL MANCERA,864.0,914.0,1778.0
283,19.39827,-99.167383,283 AV. COYOACÁN-RAFAEL DONDE,515.0,535.0,1050.0
284,19.397693,-99.17298100000001,284 DAKOTA-VERMONT,913.0,869.0,1782.0
285,19.399794600000003,-99.17751779999999,285 12 DE OCTUBRE-MINERIA,698.0,905.0,1603.0
286,19.399201,-99.17994300000001,286 13 DE SEPTIEMBRE-AVENIDA PATRIOTISMO,1608.0,1895.0,3503.0
287,19.398946,-99.183254,287 13 DE SEPTIEMBRE-PUENTE DE LA MORENA,625.0,781.0,1406.0
288,19.396333,-99.183575,288 11 DE ABRIL-AVENIDA 2,1037.0,1172.0,2209.0
289,19.397308,-99.174548,289 CHICAGO-YOSEMITE,358.0,414.0,772.0
290,19.396333,-99.172667,290 YOSEMITE-COLORADO,1062.0,786.0,1848.0
291,19.397651,-99.169946,291 MAGDALENA-DIVISIÓN DEL NORTE,1882.0,1837.0,3719.0
292,19.396917000000002,-99.166264,292 ADOLFO PRIETO-EJE 4 SUR XOLA,1401.0,1200.0,2601.0
293,19.397373,-99.164598,293 MIER Y PESADO-EJE 4 SUR XOLA,872.0,886.0,1758.0
294,19.396513,-99.160924,294 NICOLÁS SAN JUAN-EJE 4 SUR XOLA,676.0,647.0,1323.0
295,19.396328,-99.156871,295 ANAXÁGORAS-EJE 4 SUR XOLA,3145.0,2879.0,6024.0
296,19.394282999999998,-99.15875600000001,E296 DIAGONAL SAN ANTONIO-ENRIQUE RÉBSAMEN,589.0,584.0,1173.0
297,19.394412,-99.158907,297 DIAGONAL SAN ANTONIO-ENRIQUE RÉBSAMEN,1529.0,1426.0,2955.0
298,19.394073000000002,-99.16214000000001,298 ROMERO DE TERREROS-GABRIEL MANCERA,753.0,847.0,1600.0
299,19.394601,-99.165054,299 ROMERO DE TERREROS-MIER Y PESADO,1221.0,1197.0,2418.0
300,19.393268,-99.16833299999999,E300 PROVIDENCIA -LUZ SAVIÑON,719.0,756.0,1475.0
301,19.393807000000002,-99.171133,301 LUZ SAVIÑÓN-MAGDALENA,1430.0,1474.0,2904.0
302,19.393832,-99.17146600000001,302 LUZ SAVIÑON-MAGDALENA,2007.0,1702.0,3709.0
303,19.394842,-99.173025,303 MONTESITO-AV. INSURGENTES,1195.0,833.0,2028.0
304,19.395042999999998,-99.17382099999999,304 MONTESITO-DAKOTA,932.0,878.0,1810.0
305,19.394693,-99.175531,305 AVENIDA DEL PARQUE-ARIZONA,2386.0,2226.0,4612.0
306,19.393698999999998,-99.175664,306 DAKOTA-FILADELFIA,1055.0,996.0,2051.0
307,19.393701,-99.175834,307 MINESOTA-DAKOTA,517.0,589.0,1106.0
308,19.393594,-99.178072,308 NUEVA YORK-ARIZONA,657.0,712.0,1369.0
309,19.393162,-99.17956,309 PENNSYLVANIA-ARIZONA,844.0,930.0,1774.0
310,19.395319,-99.181733,310 CALLE 1-AV. PATRIOTISMO,1423.0,1634.0,3057.0
311,19.393665,-99.18539100000001,311 CALLE 5-AVENIDA REVOLUCIÓN,281.0,427.0,708.0
312,19.392634,-99.183737,312 AVENIDA 2-CALLE 7,1018.0,1013.0,2031.0
313,19.391431,-99.178989,313 PENNSYLVANIA-OKLAHOMA,605.0,744.0,1349.0
314,19.391647,-99.17733100000001,314 NUERVA YORK-LOUISIANA,666.0,740.0,1406.0
315,19.391472,-99.1736,315 ALABAMA-MONTANA,783.0,604.0,1387.0
316,19.391056,-99.1712,316 SAN FRANCISCO-CONCEPCIÓN BEISTEGUI,1100.0,894.0,1994.0
317,19.391455999999998,-99.166157,317 AVENIDA COYOACÁN-TORRES ADALID,1739.0,1635.0,3374.0
318,19.392249,-99.16412700000001,318 LUZ SAVIÑÓN-AMORES,616.0,772.0,1388.0
319,19.391991,-99.162684,319 DIAGONAL SAN ANTONIO-LUZ SAVIÑON,729.0,1035.0,1764.0
320,19.391323,-99.15935999999999,320 ENRIQUE RÉBSAMEN-LUZ SAVIÑON,736.0,975.0,1711.0
321,19.389477,-99.157513,321 TORRES ADALID-ANAXÁGORAS,1759.0,1612.0,3371.0
322,19.388528,-99.160616,322 HERIBERTO FRÍAS-CONCEPCIÓN BEISTEGUI,546.0,575.0,1121.0
323,19.389026,-99.163403,323 CONCEPCIÓN BEISTEGUI-GABRIEL MANCERA,861.0,871.0,1732.0
324,19.3872468,-99.1656554,324 AMORES-AVENIDA EUGENIA,673.0,707.0,1380.0
325,19.3881779,-99.16968940000001,325 PROVIDENCIA -AVENIDA DEL VALLE,898.0,946.0,1844.0
326,19.388978,-99.174811,326 EUGENIA-NEBRASKA,1707.0,1169.0,2876.0
327,19.38885,-99.17772,E327 GEORGIA -PENNSYLVANIA,616.0,636.0,1252.0
328,19.392585999999998,-99.184742,328 AVENIDA 1-CALLE 7,717.0,956.0,1673.0
329,19.390306,-99.184812,329 CALLE 13-AVENIDA 1,1226.0,1475.0,2701.0
330,19.389357999999998,-99.182606,330 CALLE 15-AVENIDA PATRIOTISMO,385.0,637.0,1022.0
331,19.388547,-99.183971,331 AVENIDA 2-CALLE 17,727.0,1074.0,1801.0
332,19.385507999999998,-99.183809,332 SUR DE CALLE 27-AVENIDA 3,405.0,650.0,1055.0
333,19.387624,-99.180978,333 GEORGIA -CAROLINA,476.0,715.0,1191.0
334,19.386568,-99.175089,334 NUEVA YORK-AV. INSURGENTES,1045.0,1073.0,2118.0
335,19.387003,-99.17350400000001,335 MAGDALENA-AMEYALCO,905.0,722.0,1627.0
336,19.385531,-99.169673,336 SAN BORJA-CDA. BARTOLOCHE,708.0,699.0,1407.0
337,19.384849,-99.16704,337 SAN BORJA-MARTÍN MENLALDE,1239.0,1219.0,2458.0
338,19.384249,-99.163273,338 NICOLAS SAN JUAN-SAN BORJA,851.0,844.0,1695.0
339,19.386032,-99.16054799999999,339 ENRIQUE RÉBSAMEN-AVENIDA EUGENIA,392.0,544.0,936.0
340,19.385571,-99.158188,340 ANAXÁGORAS-AVENIDA EUGENIA,1650.0,1659.0,3309.0
341,19.382851000000002,-99.158204,341 SAN BORJA-AVENIDA CUAUHTEMOC,996.0,1033.0,2029.0
342,19.381076,-99.15945500000001,342 ANAXÁGORAS-ANGEL URRAZA EJE 6 SUR,691.0,654.0,1345.0
343,19.384099,-99.160826,343 ENRIQUE RÉBSAMEN-DIVISIÓN DEL NORTE,437.0,536.0,973.0
344,19.382107,-99.162243,344 HERIBERTO FRÍAS-ANGEL URRAZA EJE 6 SUR,332.0,352.0,684.0
345,19.384498,-99.172223,345 MIRAFLORES-PATRICIO SANZ,561.0,578.0,1139.0
346,19.385019,-99.174077,346 SAN FRANCISCO-SANTA MARGARITA,452.0,492.0,944.0
347,19.384377999999998,-99.176097,347 PENNSYLVANIA-MAXIMINO AVILA CAMACHO,873.0,896.0,1769.0
348,19.385365,-99.178216,348 INDIANA-AVENIDA SAN ANTONIO,476.0,545.0,1021.0
349,19.385688000000002,-99.18085699999999,349 AUGUSTO RODIN-AVENIDA SAN ANTONIO,375.0,556.0,931.0
350,19.384062,-99.18148199999999,350 JOSE CLEMENTE OROZCO-CORREGGIO,296.0,406.0,702.0
351,19.385751000000006,-99.186297,351 CALLE 27-AVENIDA REVOLUCIÓN,1046.0,1133.0,2179.0
352,19.384114,-99.185447,352 TINTORETO-GIORGINE,757.0,931.0,1688.0
353,19.382168,-99.17880799999999,353 CAROLINA-HOLBEIN,247.0,363.0,610.0
354,19.381664999999998,-99.17668499999999,354 BOSTON-AV. INSURGENTES,651.0,690.0,1341.0
355,19.38205,-99.173291,355 CALIFORNIA-SACRAMENTO,435.0,454.0,889.0
356,19.381292000000002,-99.170171,356 MATIAS ROMERO -ADOLFO PRIETO,1196.0,1197.0,2393.0
357,19.380598000000006,-99.1669248,357 MATIAS ROMERO -AMORES,956.0,1007.0,1963.0
358,19.380167999999998,-99.164222,358 NICOLAS SAN JUAN-MATIAS ROMERO ,623.0,636.0,1259.0
359,19.379269,-99.161169,359 MATIAS ROMERO -PESTALLOZZI,1341.0,1433.0,2774.0
360,19.379027899999997,-99.1628259,E360 HERIBERTO FRÍAS-MATIAS ROMERO,451.0,450.0,901.0
361,19.380709,-99.17508000000001,361 PORFIRIO DÍAZ-CAPULÍN,480.0,421.0,901.0
362,19.382207,-99.181043,362 AUGUSTO RODIN-ALBERTO BALDERAS,295.0,435.0,730.0
363,19.380813,-99.183851,363 HOLBEIN-PAULO UCELLO,888.0,1087.0,1975.0
364,19.383063,-99.185858,364 BOTICHELLI-CDA. DE GIORGONE,355.0,517.0,872.0
365,19.381117,-99.186687,365 HOLBEIN-AVENIDA REVOLUCIÓN,969.0,967.0,1936.0
366,19.378345,-99.181973,366 PORFIRIO DÍAZ-AUGUSTO RODÍN,575.0,688.0,1263.0
367,19.37946,-99.181632,367 BOSTON -AUGUSTO RODÍN,291.0,393.0,684.0
368,19.379246,-99.179344,368 PORFIRIO DÍAZ-CINCINATTI ,294.0,391.0,685.0
369,19.379884,-99.17747800000001,369 PORFIRIO DÍAZ-AV. INSURGENTES,1442.0,1379.0,2821.0
370,19.378818,-99.177054,370 TLACOQUEMECATL-AV. INSURGENTES,734.0,604.0,1338.0
371,19.378542000000003,-99.174328,371 TLACOQUEMECATL-CAPULIN,688.0,727.0,1415.0
372,19.37797,-99.170289,372 DR. ROBERTO GAYOL-TLACOQUEMECATL,1579.0,1456.0,3035.0
373,19.377968,-99.166663,373 PILARES-GABRIEL MANCERA,637.0,655.0,1292.0
374,19.376964,-99.161116,374 PITÁGORAS-PILARES,908.0,823.0,1731.0
375,19.376865,-99.15881800000001,375 TENAYUCA-DIVISIÓN DEL NORTE,676.0,591.0,1267.0
376,19.375442,-99.16159499999999,376 PITÁGORAS-AV. UNIVERSIDAD,290.0,340.0,630.0
377,19.375394,-99.16375,377 HERIBERTO FRÍAS-MIGUEL LAURENT,888.0,790.0,1678.0
378,19.375823,-99.168076,378 MIGUEL LAURENT-AMORES,388.0,382.0,770.0
379,19.375751,-99.17084,379 DR. ROBERTO GAYOL-MIGUEL LAURENT,417.0,467.0,884.0
380,19.374876,-99.173512,380 MORAS-SAN LORENZO,495.0,546.0,1041.0
381,19.375541000000002,-99.177894,381 SAN LORENZO-MANZANAS,425.0,513.0,938.0
382,19.375591,-99.178084,382 SAN LORENZO-AV. INSURGENTES,300.0,456.0,756.0
383,19.375764,-99.181527,383 LUIS CARACCI-2DA. LUIS CARACCI,336.0,459.0,795.0
384,19.375873000000002,-99.185583,384 EMPRESA-POUSSIN,1532.0,1772.0,3304.0
385,19.375651,-99.18558,385 POUSSIN-EMPRESA,1229.0,1394.0,2623.0
386,19.37484,-99.185846,386 POUSSIN-DONATELLO,878.0,1096.0,1974.0
387,19.37455556,-99.18050556,387 CADIZ-EMPRESA,558.0,722.0,1280.0
388,19.373038,-99.18135500000001,388 VALENCIA-MALAGA,214.0,231.0,445.0
389,19.373528,-99.179356,389 SANTANDER-FELIX CUEVAS,1112.0,1161.0,2273.0
390,19.373228,-99.17826,390 OSO-FELIX CUEVAS,2819.0,2949.0,5768.0
391,19.373142,-99.178283,E391 OSO-FELIX CUEVAS,769.0,732.0,1501.0
392,19.373006699999998,-99.1747749,392 PATRICIO SANZ-FELIX CUEVAS,1225.0,1090.0,2315.0
393,19.372795999999997,-99.172558,393 ADOLFO PRIETO-FELIX CUEVAS,893.0,982.0,1875.0
394,19.372436999999998,-99.171592,394 DR. ROBERTO GAYOL-FELIX CUEVAS,922.0,962.0,1884.0
395,19.373742,-99.169814,395 SAN LORENZO-CALLEJÓN MARTÍN MENLALDE,567.0,529.0,1096.0
396,19.371554,-99.170187,396 MARTÍN MENLALDE-FELIX CUEVAS,992.0,1003.0,1995.0
397,19.373194,-99.167247,397 SAN LORENZO-GABRIEL MANCERA,621.0,658.0,1279.0
398,19.371029999999998,-99.16566,398 SANCHEZ AZCONA-FELIX CUEVAS,1934.0,1988.0,3922.0
399,19.372407,-99.164519,399 HERIBERTO FRÍAS-SAN LORENZO,559.0,494.0,1053.0
400,19.3726458,-99.1642743,400 SAN LORENZO-HERIBERTO FRIAS,529.0,492.0,1021.0
401,19.372147000000002,-99.16158,401 SAN LORENZO-AVENIDA CUAUHTEMOC,476.0,395.0,871.0
402,19.370945199999998,-99.1587223,402 UXMAL-MUNICIPIO LIBRE,998.0,1074.0,2072.0
403,19.371371,-99.15863900000001,403 UXMAL-MUNICIPIO LIBRE,140.0,228.0,368.0
404,19.373813000000002,-99.157387,404 MIGUEL LAURENT-AVENIDA DIVISIÓN DEL NORTE,1058.0,922.0,1980.0
405,19.370619,-99.156626,405 DIVISIÓN DEL NORTE-MUNICIPIO LIBRE,840.0,804.0,1644.0
406,19.367831,-99.163261,406 PARROQUIA AV. MEXICO-COYOACAN,240.0,384.0,624.0
407,19.367294,-99.158694,407 PROL. XOCHICALCO-GENERAL EMILIANO ZAPATA,320.0,335.0,655.0
408,19.366770000000002,-99.15684300000001,408 PROLONGACIÓN PETÉN-GENERAL EMILIANO ZAPATA,364.0,316.0,680.0
409,19.365102,-99.155499,409 AZORES-DIVISIÓN DEL NORTE,415.0,297.0,712.0
410,19.36564,-99.158063,410 PROLONGACIÓN TAJÍN-PROLONGACIÓN REPÚBLICAS,130.0,88.0,218.0
411,19.367864,-99.16362600000001,411 PARROQUIA-AVENIDA MÉXICO-COYOACAN,98.0,163.0,261.0
412,19.3684182,-99.1654145,412 PARROQUIA-AVENIDA UNIVERSIDAD,711.0,612.0,1323.0
413,19.369782,-99.171906,413 PARROQUIA-AVENIDA COYOACÁN,509.0,578.0,1087.0
414,19.370186999999998,-99.173712,414 PARROQUIA-JOSÉ IGNACIO BARTOLACHE,479.0,509.0,988.0
415,19.371498000000006,-99.17602,415 SAN FRANCISCO-PARROQUÍA,407.0,391.0,798.0
416,19.371308,-99.177607,416 RECREO-PARROQUÍA,370.0,498.0,868.0
417,19.373262,-99.184333,417 GOYA-AUGUSTO RODÍN,231.0,400.0,631.0
418,19.371152,-99.18303399999999,418 GALICIA-ACTIPAN,368.0,379.0,747.0
419,19.370606,-99.18150200000001,419 ACTIPAN-CADIZ,608.0,593.0,1201.0
420,19.369723,-99.17964,420 MARÍA LUZ BRINGAS-OSO,943.0,858.0,1801.0
421,19.369467,-99.179401,421 MARÍA LUZ BRINGAS-OSO,618.0,621.0,1239.0
422,19.368356,-99.177487,422 BUFALO-JOSÉ MARÍA RICO (EJE 8),247.0,341.0,588.0
423,19.367631,-99.175342,423 MORAS-JOSÉ MARÍA RICO (EJE 8),479.0,557.0,1036.0
424,19.367207999999998,-99.17053100000001,424 AMORES-JOSÉ MARÍA RICO (EJE 8),439.0,484.0,923.0
425,19.367086999999998,-99.16741,425 NICOLAS SAN JUAN-AVENIDA UNIVERSIDAD,1227.0,822.0,2049.0
426,19.365519,-99.16601700000001,426 CERRADA DE POPOCATEPETL-AV. POPOCATEPETL (EJE ,567.0,555.0,1122.0
427,19.365023,-99.162993,427 AVENIDA MÉXICO-COYOACAN-AV. POPOCATEPETL (EJE ,902.0,928.0,1830.0
428,19.363418,-99.160353,428 PROLONGACIÓN UXMAL-AV. POPOCATEPETL (EJE 8),464.0,444.0,908.0
429,19.363070999999998,-99.158292,429 PIRINEOS-AV. POPOCATEPETL (EJE 8),352.0,362.0,714.0
430,19.362139000000006,-99.154974,430 TRIPOLI-AV. POPOCATEPETL (EJE 8),876.0,574.0,1450.0
431,19.36145,-99.15822,431 BRUNO TRAVEN-PAZ MONTES DE OCA,574.0,564.0,1138.0
432,19.361296,-99.162581,432 CARRILLO PUERTO-AV. MÉXICO-COYOACÁN,890.0,774.0,1664.0
433,19.363557999999998,-99.170819,433 JOSE MARÍA OLLOQUI-LOPÉZ COSTILLA,843.0,845.0,1688.0
434,19.363741,-99.17126800000001,E434 JOSE MARÍA OLLOQUI-AMORES,420.0,380.0,800.0
435,19.365154,-99.17290600000001,435 RODRIGUEZ SARO-AVENIDA COYOACÁN,366.0,447.0,813.0
436,19.366217000000002,-99.177819,436 RODRIGUEZ SARO-BUFALLO,1023.0,844.0,1867.0
437,19.36480833,-99.17602222,437 MORAS-COMUNAL,585.0,597.0,1182.0
438,19.36479722,-99.17458333,438 ADOLFO PRIETO-JOSÉ MARÍA OLLOQUI,359.0,524.0,883.0
439,19.36218889,-99.17246667,439 AMORES-AVENIDA COYOACÁN,1003.0,1011.0,2014.0
440,19.36065,-99.168669,440 REAL DE MAYORAZGO-PUENTE XOCO,687.0,694.0,1381.0
441,19.361214999999998,-99.167527,441 PUENTE XOCO-REAL DE MAYORAZGO,241.0,177.0,418.0
442,19.359904999999998,-99.1653,442 REAL DE MAYORAZGO-AVENIDA MÉXICO-COYOACAN,0.0,0.0,0.0
443,19.359655,-99.162025,443 BRUNO TRAVEN-GOLONDRINAS,540.0,461.0,1001.0
444,19.359384,-99.159425,444 GENERAL MANUEL RINCÓN-AGUSTÍN GUTIERREZ,437.0,449.0,886.0
445,19.35827,-99.15610500000001,E445 RIFF-AVENIDA RIO CHURUBUSCO,268.0,211.0,479.0
446,19.3586,-99.156101,446 RIFF-AVENIDA RIO CHURUBUSCO,639.0,572.0,1211.0
447,19.418858,-99.176776,447 AGUSTÍN MELGAR-ZAMORA,1727.0,1638.0,3365.0
448,19.426610999999998,-99.14447,448 DR. ANDRADE - ARCOS DE BELÉN,1035.0,1020.0,2055.0
449,19.42018,-99.17439300000001,E449 ACAPULCO-PUEBLA,1389.0,1355.0,2744.0
450,19.43836,-99.152226,450 RAMOS ARIZPE-PUENTE DE ALVARADO,1199.0,1306.0,2505.0
451,19.42902,-99.20132199999999,451 CAMPOS ELÍSEOS-GOLDSMITH,672.0,1035.0,1707.0
452,19.435031,-99.179838,452 LEIBNITZ-AV. EJERCITO NACIONAL,942.0,1053.0,1995.0
453,19.424842,-99.203739,453 PEDREGAL-TEAPA,488.0,607.0,1095.0
454,19.425905,-99.204236,E454 MONTES URALES-MONTE PELVOUX,703.0,669.0,1372.0
455,19.426308,-99.20330200000001,455 PEDREGAL-FERROCARRIL DE CUERNAVACA,878.0,993.0,1871.0
456,19.427517,-99.208412,456 ALPES-MONTES ESCANDINAVOS,380.0,487.0,867.0
457,19.42703,-99.212845,E457 AV. PRADO NORTE-EXPLANADA,396.0,442.0,838.0
458,19.428679000000002,-99.20660500000001,458 MONTES URALES-VOLCÁN,643.0,696.0,1339.0
459,19.429243,-99.207267,E459 VOLCÁN-MONTES URALES,754.0,777.0,1531.0
460,19.437014,-99.207932,460 JUAN VÁZQUEZ DE MELLA-HOMERO,1234.0,1192.0,2426.0
461,19.440106,-99.210031,461 PRESA DON MARTÍN-BOULEVARD MIGUEL DE CERVANTES,718.0,1040.0,1758.0
462,19.442338,-99.205198,462 PRESA FALCÓN-DANXHÓ,542.0,656.0,1198.0
463,19.442338,-99.202492,463 LAGO ANDRÓMACO-LAGO ZURICH,1344.0,1360.0,2704.0
464,19.442421,-99.199838,E464 MATEO ALEMÁN-PROLONGACIÓN MOLIERE ,790.0,786.0,1576.0
465,19.445039,-99.194078,465 LAGUNA DE GINEBRA-LAGO WETTER,992.0,1030.0,2022.0
466,19.44269,-99.19083,466  LAGO ONEGA-LAGO LADOGA,553.0,717.0,1270.0
467,19.440399,-99.186784,E467  LAGO MAYOR-LAGO ALBERTO,561.0,649.0,1210.0
468,19.434182999999997,-99.173089,468 LAGO XOCHIMILCO-AV. EJÉRCITO NACIONAL,823.0,771.0,1594.0
469,19.434182999999997,-99.173089,E469 BAHÍA DE LA CONCEPCIÓN-BAHÍA DE TODOS LOS SAN,266.0,349.0,615.0
470,19.435039,-99.173879,470 BAHÍA DE LAS PALMAS-BAHÍA DE TODOS LOS SANTOS,1124.0,1095.0,2219.0
471,19.436287,-99.174888,471 BAHÍA DE CHACHALACAS-BAHÍA SANTA BÁRBARA ,943.0,939.0,1882.0
472,19.437667,-99.17711,E472 BAHÍA SANTA BÁRBARA-BAHÍA DE BALLENAS ,677.0,712.0,1389.0
473,19.438143,-99.17519,473 BAHÍA DEL ESPÍRITU SANTO-BAHÍA DE BANDERAS,643.0,706.0,1349.0
474,19.438984,-99.177549,474 BAHÍA DE SAN HIPÓLITO-BAHÍA DEL ESPÍRITU SANTO,1146.0,1262.0,2408.0
475,19.439249,-99.181065,475 LAGO MURITZ-LAGO ALBERTO,1615.0,1538.0,3153.0
476,19.442127,-99.184433,476 LAGO COMO-LAGUNA DE MAYRÁN,2158.0,2059.0,4217.0
477,19.440904999999997,-99.18174300000001,477 LAGO ISEO-LAGUNA DE MAYRÁN ,1004.0,863.0,1867.0
478,19.440818,-99.176961,478 LAGUNA DE MAYRÁN-LAGO CHALCO,849.0,1025.0,1874.0
479,19.444433,-99.179664,E479 LAGO MURITZ-AV. MARINA NACIONAL,556.0,499.0,1055.0
480,19.446073000000002,-99.18165400000001,480 LAGO ISEO-AV. MARINA NACIONAL,1152.0,1184.0,2336.0
